[
  {
    "key" : "ANPa",
    "name" : "Associacao Norte do Para",
    "latitude" : -1.3669357,
    "longitude" : -48.3574107
  },
  {
    "key" : "IAGP",
    "name" : "Grao Para",
    "latitude" : -1.4364322,
    "longitude" : -48.4587803
  },
  {
    "key" : "CNA",
    "name" : "Centro Niponico",
    "latitude" : -1.4334214,
    "longitude" : -48.4604784
  },
  {
    "key" : "EASB",
    "name" : "Sao Bras",
    "latitude" : -1.4485126,
    "longitude" : -48.4665587
  },
  {
    "key" : "EAP",
    "name" : "Pedreira",
    "latitude" : -1.4294566,
    "longitude" : -48.4759087
  },
  {
    "key" : "EAC",
    "name" : "Castanhal",
    "latitude" : -1.2882758,
    "longitude" : -47.9362887
    }
  ]